id,city,country,latitude,longitude
0,Johannesburg,South Africa,-26.20227,28.04363
1,Pretoria,South Africa,-25.74486,28.18783
2,Durban,South Africa,-29.85,31.01667
3,Bloemfontein,South Africa,-29.13333,26.2
4,East London,South Africa,-33.01529,27.91162
5,Port Elizabeth,South Africa,-33.96667,25.58333
6,Cape Town,South Africa,-33.91667,18.41667
