id,city,country,latitude,longitude
0,New York,United Kingdom,53.07897,-0.14008
1,London,United Kingdom,51.50853,-0.12574
2,Stockholm,Sweden,59.33258,18.0649
3,St Petersburg,Russia,59.89444,30.26417
4,Moscow,Russia,55.75222,37.61556
5,Amsterdam,Netherlands,52.37403,4.88969
6,Frankfurt,Germany,50.11667,8.68333
7,Paris,France,48.85341,2.3488
