id,city,country,latitude,longitude
0,Houston,United States,29.76328,-95.36327
1,San Francisco,United States,37.77493,-122.41942
2,Los Angeles,United States,34.05223,-118.24368
3,New York,United States,40.71427,-74.00597
4,Newark,United States,40.73566,-74.17237
5,"Washington, DC",United States,38.89511,-77.03637
6,Atlanta,United States,33.749,-84.38798
7,Dallas,United States,32.78306,-96.80667
8,Miami,United States,25.77427,-80.19366
