id,city,country,latitude,longitude
0,NETNOD,,0.0,0.0
1,Stockholm,Sweden,59.33258,18.0649
2,Helsinki,Finland,60.16952,24.93545
3,Copenhagen,Denmark,55.67594,12.56553
4,Reykjavik,Iceland,64.13548,-21.89541
5,GEANT,,0.0,0.0
6,General Internet,,0.0,0.0
7,St Petersburg,Russia,59.89444,30.26417
8,Oslo,Norway,59.91273,10.74609
